City_ID,City,Country,Lat,Lng,Max Temp,Humidity,Cloudiness,Wind Speed,Current Conditions
0,Lorengau,PG,-2.0226,147.2712,80.11,82,38,8.01,scattered clouds
1,Namibe,AO,-15.1961,12.1522,66.04,91,64,6.53,broken clouds
2,Cidreira,BR,-30.1811,-50.2056,58.37,52,0,13.56,clear sky
3,Znamenskoye,RU,57.1281,73.8282,40.68,94,60,3.31,broken clouds
4,Sovetskiy,RU,61.3614,63.5842,39.4,92,90,3.47,overcast clouds
5,Kyren,RU,51.6828,102.1408,44.02,92,42,0.94,scattered clouds
6,Coahuayana,MX,18.7333,-103.6833,88.39,66,100,7.36,overcast clouds
7,Orasac,BA,44.6289,16.0711,58.86,93,0,2.39,clear sky
8,Qaanaaq,GL,77.484,-69.3632,36.84,87,100,7.11,overcast clouds
9,Bluff,NZ,-46.6,168.3333,41.32,87,7,6.02,clear sky
10,Mataura,NZ,-46.1927,168.8643,37.26,94,9,2.57,clear sky
11,Kodiak,US,57.79,-152.4072,51.31,82,100,3.44,overcast clouds
12,Santa Rosa,PH,14.3122,121.1114,79.11,86,96,6.04,overcast clouds
13,Bereda,ES,43.2686,-7.5406,62.37,79,0,1.57,clear sky
14,Rikitea,PF,-23.1203,-134.9692,73.04,71,3,14.56,clear sky
15,Bilma,NE,18.6853,12.9164,93.15,14,9,4.61,clear sky
16,Kitimat,CA,54.0524,-128.6534,62.98,47,0,2.21,clear sky
17,Mul,IN,20.0667,79.6667,76.08,95,100,4.47,overcast clouds
18,Laguna,US,38.421,-121.4238,94.01,38,0,11.5,clear sky
19,Ribeira Grande,PT,38.5167,-28.7,73.8,73,75,20.71,broken clouds
20,Saint-Pierre,RE,-21.3393,55.4781,68.92,68,75,4.61,broken clouds
21,Jamestown,US,42.097,-79.2353,80.19,44,20,7.0,few clouds
22,Buala,SB,-8.145,159.5921,80.2,78,17,9.71,light rain
23,Khatanga,RU,71.9667,102.5,30.67,95,100,8.39,overcast clouds
24,Atuona,PF,-9.8,-139.0333,76.87,74,8,20.29,clear sky
25,Busselton,AU,-33.65,115.3333,49.95,90,9,1.95,clear sky
26,Honiara,SB,-9.4333,159.95,77.0,80,10,5.88,clear sky
27,Souillac,MU,-20.5167,57.5167,68.52,74,0,10.96,clear sky
28,Hermanus,ZA,-34.4187,19.2345,54.81,83,0,13.51,clear sky
29,Thompson,CA,55.7435,-97.8558,53.76,66,75,9.22,broken clouds
30,Goderich,CA,43.7501,-81.7165,83.91,57,96,8.05,overcast clouds
31,Sioux Lookout,CA,50.1001,-91.917,64.47,55,75,4.61,light intensity shower rain
32,Bosaso,SO,11.2842,49.1816,89.74,59,100,6.76,overcast clouds
33,Butaritari,KI,3.0707,172.7902,81.07,70,0,12.95,clear sky
34,Port Hardy,CA,50.6996,-127.4199,51.98,100,40,4.61,mist
35,Sosnovo-Ozerskoye,RU,52.5249,111.5418,42.78,81,100,3.87,overcast clouds
36,Port Alfred,ZA,-33.5906,26.891,63.18,91,100,4.0,overcast clouds
37,Seoul,KR,37.5683,126.9778,70.99,78,0,4.61,clear sky
38,Banjar,ID,-8.19,114.9675,74.86,90,100,4.05,overcast clouds
39,Tuatapere,NZ,-46.1333,167.6833,37.9,85,5,4.61,clear sky
40,Sibundoy,CO,1.2048,-76.9237,71.26,98,100,3.44,light rain
41,Te Anau,NZ,-45.4167,167.7167,34.63,86,28,0.74,scattered clouds
42,Liwale,TZ,-9.7667,37.9333,68.61,85,4,5.44,clear sky
43,Xining,CN,36.6167,101.7667,51.28,68,70,2.44,broken clouds
44,Bengkulu,ID,-3.8004,102.2655,74.14,85,59,2.93,heavy intensity rain
45,Mar Del Plata,AR,-38.0023,-57.5575,59.02,36,0,8.05,clear sky
46,Erzin,TR,36.9559,36.2,74.75,61,0,1.66,clear sky
47,Upernavik,GL,72.7868,-56.1549,44.85,88,100,8.48,light rain
48,Kapaa,US,22.0752,-159.319,82.38,78,20,12.66,light rain
49,Hobart,AU,-42.8794,147.3294,48.25,75,100,6.91,overcast clouds
50,Provideniya,RU,64.3833,-173.3,44.91,74,3,0.85,clear sky
51,Anloga,GH,5.7947,0.8973,76.98,83,78,15.08,broken clouds
52,Hasaki,JP,35.7333,140.8333,72.0,85,100,23.8,overcast clouds
53,Albany,US,42.6001,-73.9662,83.88,58,100,4.59,overcast clouds
54,Ternate,ID,0.8,127.4,78.71,81,93,4.0,overcast clouds
55,Tyup,KG,42.7276,78.3648,58.84,44,0,3.18,clear sky
56,Along,IN,28.1667,94.7667,70.41,82,2,1.61,clear sky
57,Yellowknife,CA,62.456,-114.3525,55.92,76,75,5.75,broken clouds
58,Georgetown,MY,5.4112,100.3354,82.33,87,20,3.44,few clouds
59,Cape Town,ZA,-33.9258,18.4232,57.27,91,75,9.22,broken clouds
60,Fortuna,US,40.5982,-124.1573,65.98,90,65,7.49,broken clouds
61,Salalah,OM,17.0151,54.0924,78.89,89,75,5.75,broken clouds
62,Port Moresby,PG,-9.4431,147.1797,76.42,88,40,4.61,scattered clouds
63,Kiunga,PG,-6.1219,141.2906,71.38,99,100,0.45,overcast clouds
64,Lompoc,US,34.6391,-120.4579,89.49,51,40,11.01,scattered clouds
65,Punta Arenas,CL,-53.15,-70.9167,50.11,53,0,17.27,clear sky
66,Bongandanga,CD,1.5,21.05,71.1,97,100,3.11,moderate rain
67,Saint George,US,37.1041,-113.5841,85.42,46,75,31.07,haze
68,Ushuaia,AR,-54.8,-68.3,46.06,53,20,19.57,few clouds
69,Bredasdorp,ZA,-34.5322,20.0403,54.43,80,0,12.26,clear sky
70,Katsuura,JP,35.1333,140.3,73.78,86,100,20.85,overcast clouds
71,Barrow,US,71.2906,-156.7887,35.62,93,100,16.11,mist
72,Vardo,NO,70.3705,31.1107,48.18,81,100,13.8,overcast clouds
73,Saskylakh,RU,71.9167,114.0833,33.98,98,100,13.06,light snow
74,Kahului,US,20.8947,-156.47,84.22,61,20,13.8,few clouds
75,Kamaishi,JP,39.2667,141.8833,63.37,89,80,7.54,broken clouds
76,Sfantu Gheorghe,RO,45.8667,25.7833,60.26,91,94,6.38,overcast clouds
77,Victoria,HK,22.2855,114.1577,83.32,84,17,1.01,few clouds
78,Avarua,CK,-21.2078,-159.775,78.85,78,75,14.97,broken clouds
79,Bilgi,IN,16.35,75.6167,72.52,90,100,10.29,overcast clouds
80,Dikson,RU,73.5069,80.5464,36.36,79,99,5.32,overcast clouds
81,Tiznit,MA,29.5833,-9.5,75.78,58,50,4.05,scattered clouds
82,Katherine,AU,-14.4667,132.2667,77.32,83,75,4.61,broken clouds
83,Havre-Saint-Pierre,CA,50.2334,-63.5986,70.16,68,0,8.05,clear sky
84,Ayagoz,KZ,47.9714,80.4392,55.51,26,49,3.53,scattered clouds
85,Teplodar,UA,46.5059,30.3252,68.2,79,100,13.8,overcast clouds
86,Suntar,RU,62.1444,117.6319,32.72,96,17,4.09,few clouds
87,San Joaquin,US,37.9333,-121.3011,84.49,42,0,4.61,clear sky
88,Rocha,UY,-34.4833,-54.3333,51.3,61,0,12.64,clear sky
89,Conde,BR,-7.2597,-34.9075,78.26,69,75,14.97,broken clouds
90,Palanga,LT,55.9175,21.0686,57.22,72,100,1.14,overcast clouds
91,Lavrentiya,RU,65.5833,-171.0,41.88,87,100,4.99,overcast clouds
92,Pocosol,CR,10.3667,-84.6167,83.28,77,100,3.6,overcast clouds
93,Berezniki,RU,59.4152,56.8124,43.16,98,100,3.8,overcast clouds
94,Honningsvag,NO,70.9821,25.9704,46.15,87,100,10.36,light rain
95,Salinopolis,BR,-0.6136,-47.3561,81.63,75,100,12.26,overcast clouds
96,Codrington,AU,-38.2667,141.9667,48.51,87,100,11.45,light rain
97,Tuktoyaktuk,CA,69.4541,-133.0374,39.2,87,100,13.8,overcast clouds
98,Maiduguri,NG,11.8464,13.1603,72.23,91,94,4.03,overcast clouds
99,Qaqortoq,GL,60.7167,-46.0333,49.3,65,12,1.57,few clouds
100,Vaini,TO,-21.2,-175.2,75.36,88,75,8.05,broken clouds
101,Saint-Philippe,RE,-21.3585,55.7679,65.79,73,51,11.25,broken clouds
102,Shubarshi,KZ,48.5872,57.1869,52.95,60,98,18.07,overcast clouds
103,Noumea,NC,-22.2763,166.4572,75.0,99,1,4.21,clear sky
104,Tasiilaq,GL,65.6145,-37.6368,44.76,76,9,2.91,clear sky
105,Samsun,TR,41.25,36.3333,68.0,97,0,2.3,clear sky
106,Touros,BR,-5.1989,-35.4608,77.63,73,0,17.78,clear sky
107,Nueva Esperanza,HN,15.2667,-87.6,87.42,67,81,2.73,broken clouds
108,Rawson,AR,-43.3002,-65.1023,63.37,31,0,6.35,clear sky
109,Kalmar,SE,56.6616,16.3616,59.14,92,100,2.3,overcast clouds
110,Xichang,CN,27.8964,102.2634,56.12,95,69,1.21,broken clouds
111,Mehran,IR,33.1222,46.1646,94.23,13,0,8.1,clear sky
112,Ridgetown,CA,42.4334,-81.8998,76.86,47,100,13.6,overcast clouds
113,Pisco,PE,-13.7,-76.2167,65.01,72,0,10.36,clear sky
114,Menongue,AO,-14.6585,17.691,66.11,21,25,5.75,scattered clouds
115,Esperance,AU,-33.8667,121.9,50.77,88,100,7.83,overcast clouds
116,Mahebourg,MU,-20.4081,57.7,67.24,71,3,12.95,clear sky
117,Ponta Do Sol,PT,32.6667,-17.1,78.71,83,100,5.61,overcast clouds
118,Ishigaki,JP,24.3448,124.1572,80.73,100,75,20.71,broken clouds
119,Lokosovo,RU,61.1333,74.8167,37.27,83,81,2.62,broken clouds
120,Faanui,PF,-16.4833,-151.75,79.11,72,4,19.53,clear sky
121,Mehamn,NO,71.0357,27.8492,46.35,87,75,13.8,light intensity drizzle
122,Tukrah,LY,32.5341,20.5791,78.35,68,0,5.28,clear sky
123,Talakan,RU,50.3167,130.3667,55.35,95,9,4.07,clear sky
124,San Patricio,US,28.017,-97.5169,94.06,39,8,7.05,clear sky
125,Severo-Kurilsk,RU,50.6789,156.125,52.03,88,15,11.41,few clouds
126,Yeniseysk,RU,58.4497,92.1703,45.81,95,100,2.51,overcast clouds
127,Putyatino,RU,54.16,41.1169,43.74,64,11,2.46,few clouds
128,Chokurdakh,RU,70.6333,147.9167,39.36,91,100,4.79,overcast clouds
129,Cherskiy,RU,68.75,161.3,48.74,82,97,2.62,overcast clouds
130,Turkmenabat,TM,39.0733,63.5786,75.18,35,0,18.41,clear sky
131,Valdivia,CL,-39.8142,-73.2459,59.09,58,0,2.73,clear sky
132,Castro,BR,-24.7911,-50.0119,76.73,61,0,7.52,clear sky
133,Canon City,US,38.441,-105.2424,56.19,96,100,9.22,overcast clouds
134,Yulara,AU,-25.2406,130.9889,53.11,86,35,15.84,scattered clouds
135,Port Elizabeth,ZA,-33.918,25.5701,60.1,94,0,2.3,clear sky
136,Gouyave,GD,12.1646,-61.7296,86.77,70,20,17.27,few clouds
137,Cam Ranh,VN,11.9214,109.1591,76.96,83,20,3.44,few clouds
138,Ahipara,NZ,-35.1667,173.1667,53.02,80,69,7.47,broken clouds
139,Klaksvik,FO,62.2266,-6.589,50.92,89,71,16.51,broken clouds
140,Puerto Ayora,EC,-0.7393,-90.3518,75.16,87,80,8.01,broken clouds
141,Alofi,NU,-19.0595,-169.9187,75.09,83,19,11.5,few clouds
142,Lebu,CL,-37.6167,-73.65,51.98,74,1,15.61,clear sky
143,Shenjiamen,CN,29.9576,122.298,75.67,82,12,8.39,few clouds
144,Saravena,CO,6.9538,-71.8752,79.79,84,89,3.31,overcast clouds
145,Broome,US,42.2506,-75.833,82.71,46,0,8.05,clear sky
146,Hithadhoo,MV,-0.6,73.0833,81.36,72,9,11.74,clear sky
147,Aguililla,MX,18.7333,-102.7333,77.72,81,100,2.17,overcast clouds
148,Ngunguru,NZ,-35.6167,174.5,54.52,85,78,2.64,broken clouds
149,Shush,IR,32.1942,48.2436,96.76,10,0,12.91,clear sky
150,New Milford,US,40.9327,-74.0179,88.36,34,0,4.61,clear sky
151,Ilulissat,GL,69.2167,-51.1,50.02,66,75,12.66,light rain
152,Tamiahua,MX,21.2667,-97.45,85.51,67,100,7.67,overcast clouds
153,Talisay,PH,10.2447,123.8494,78.82,89,20,1.14,few clouds
154,Ancud,CL,-41.8697,-73.8203,53.22,81,61,4.81,broken clouds
155,Carnarvon,AU,-24.8667,113.6333,63.57,69,0,12.91,clear sky
156,Avera,US,33.194,-82.5271,79.56,73,98,6.91,overcast clouds
157,Malindi,KE,-3.2175,40.1191,75.36,83,20,16.11,few clouds
158,Kosh-Agach,RU,50.0,88.6667,42.01,49,44,3.24,scattered clouds
159,Reconquista,AR,-29.15,-59.65,67.69,21,0,8.34,clear sky
160,Koygorodok,RU,60.445,50.9968,42.8,95,99,2.57,overcast clouds
161,Jalu,LY,29.0331,21.5482,83.86,22,0,5.59,clear sky
162,Charlottetown,CA,46.2352,-63.1267,70.77,59,20,12.66,few clouds
163,Kaitangata,NZ,-46.2817,169.8464,39.7,92,10,3.62,clear sky
164,Jumla,NP,29.2747,82.1838,60.22,96,94,1.83,overcast clouds
165,Chardara,KZ,41.2547,67.9692,67.44,39,11,22.91,few clouds
166,Marsh Harbour,BS,26.5412,-77.0636,86.0,69,16,9.13,few clouds
167,Luderitz,NA,-26.6481,15.1594,58.6,80,25,18.61,scattered clouds
168,East London,ZA,-33.0153,27.9116,66.15,85,95,5.17,overcast clouds
169,Rio Grande,BR,-32.035,-52.0986,62.71,58,0,14.32,clear sky
170,Chihuahua,MX,28.5,-106.0,81.19,53,83,4.56,broken clouds
171,Nikolskoye,RU,59.7035,30.7861,46.29,78,8,4.27,clear sky
172,Palana,RU,59.1167,159.9667,46.53,96,98,14.85,overcast clouds
173,Pevek,RU,69.7008,170.3133,41.04,82,59,2.15,broken clouds
174,Nishihara,JP,26.1842,127.7558,81.68,89,20,10.36,few clouds
175,Ndele,CF,8.4109,20.6473,69.82,97,52,1.54,broken clouds
176,Walvis Bay,NA,-22.9575,14.5053,54.55,87,6,5.75,clear sky
177,Yumen,CN,40.2833,97.2,66.31,14,0,1.5,clear sky
178,Sassandra,CI,4.95,-6.0833,73.35,92,10,7.09,clear sky
179,Coquimbo,CL,-29.9533,-71.3436,56.93,71,100,8.05,overcast clouds
180,Balaipungut,ID,1.05,101.2833,74.34,97,100,1.72,overcast clouds
181,Maridi,SS,4.9158,29.4742,66.96,96,22,4.32,few clouds
182,Lobito,AO,-12.3481,13.5456,71.1,81,0,2.46,clear sky
183,Belmonte,BR,-15.8631,-38.8828,73.63,59,0,7.54,clear sky
184,Arraial Do Cabo,BR,-22.9661,-42.0278,84.16,69,0,10.36,clear sky
185,Lodja,CD,-3.4833,23.4333,70.7,93,22,2.46,light rain
186,New Norfolk,AU,-42.7826,147.0587,47.91,80,98,1.99,overcast clouds
187,Otradnoye,RU,59.7775,30.8181,49.03,78,6,4.32,clear sky
188,Chuy,UY,-33.6971,-53.4616,54.91,55,0,11.83,clear sky
189,Caravelas,BR,-17.7125,-39.2481,73.81,66,3,8.72,clear sky
190,Guerrero Negro,MX,27.9769,-114.0611,84.67,55,6,5.57,clear sky
191,Leningradskiy,RU,69.3833,178.4167,37.67,88,69,11.63,broken clouds
192,Baiyin,CN,36.5583,104.2081,61.5,43,3,1.86,clear sky
193,Xihe,CN,31.6864,113.4659,68.94,76,0,3.44,clear sky
194,Cayenne,GF,4.9333,-52.3333,86.04,66,0,12.66,clear sky
195,Camacha,PT,33.0833,-16.3333,72.82,83,40,9.22,scattered clouds
196,Hilo,US,19.7297,-155.09,84.27,71,0,4.0,clear sky
197,Ca Mau,VN,9.1769,105.15,75.51,95,100,4.36,overcast clouds
198,Buraydah,SA,26.326,43.975,91.85,15,5,3.96,clear sky
199,Mlalo,TZ,-4.9333,38.9333,69.12,94,18,4.34,few clouds
200,Hervey Bay,AU,-25.2986,152.8535,61.34,60,63,11.01,broken clouds
201,Aksu,CN,41.1231,80.2644,78.24,17,4,6.85,clear sky
202,Okhotsk,RU,59.3833,143.3,45.84,62,0,16.15,clear sky
203,Mitsamiouli,KM,-11.3847,43.2844,75.69,76,10,6.11,clear sky
204,Ostersund,SE,63.1792,14.6357,50.61,81,100,8.05,overcast clouds
205,Kathmandu,NP,27.7167,85.3167,70.02,94,75,0.0,broken clouds
206,Innisfail,AU,-17.5333,146.0333,68.95,94,24,4.79,few clouds
207,Oistins,BB,13.0667,-59.5333,87.89,66,40,11.5,scattered clouds
208,Oranjemund,NA,-28.55,16.4333,56.23,89,23,12.01,few clouds
209,Sambava,MG,-14.2667,50.1667,68.02,89,38,10.27,scattered clouds
210,Marathon,US,44.9,-89.7668,60.04,93,100,7.54,moderate rain
211,Haines Junction,CA,60.7522,-137.5108,51.75,50,89,3.44,overcast clouds
212,Grand Gaube,MU,-20.0064,57.6608,67.37,70,0,3.0,clear sky
213,Lodwar,KE,3.1191,35.5973,89.17,31,100,8.01,overcast clouds
214,Mustasaari,FI,63.1142,21.6822,51.89,87,0,1.14,clear sky
215,Lakatoro,VU,-16.0999,167.4164,79.36,77,74,12.03,broken clouds
216,Maceio,BR,-9.6658,-35.7353,72.84,94,100,5.75,overcast clouds
217,Sakakah,SA,29.9697,40.2064,96.37,13,1,3.69,clear sky
218,Marienburg,PL,54.0359,19.0266,56.84,81,100,5.55,overcast clouds
219,Zhigansk,RU,66.7697,123.3711,35.89,97,100,14.27,overcast clouds
220,Puerto Baquerizo Moreno,EC,-0.9,-89.6,68.99,83,100,10.36,overcast clouds
221,Tabuk,PH,17.4189,121.4443,72.81,93,96,1.92,overcast clouds
222,Talnakh,RU,69.4865,88.3972,38.21,99,100,9.8,light rain
223,Cabo San Lucas,MX,22.8909,-109.9124,89.62,70,20,5.75,few clouds
224,Marawi,PH,7.9986,124.2928,67.73,90,100,3.22,overcast clouds
225,Santa Maria,BR,-29.6842,-53.8069,60.1,41,0,5.75,clear sky
226,Flinders,AU,-34.5833,150.8552,50.25,84,6,7.96,clear sky
227,Taurage,LT,55.2522,22.2897,53.2,70,100,4.72,overcast clouds
228,Ocos,GT,14.5094,-92.1933,83.8,75,44,12.21,scattered clouds
229,Nuuk,GL,64.1835,-51.7216,52.41,62,75,17.27,broken clouds
230,Abu Samrah,SY,35.3029,37.1841,80.73,35,0,6.53,clear sky
231,Tiksi,RU,71.6872,128.8694,38.17,89,100,8.08,overcast clouds
232,Akdepe,TM,42.0551,59.3788,60.89,30,0,8.01,clear sky
233,Manono,CD,-7.3,27.4167,76.42,56,15,2.1,few clouds
234,Koroni,GR,36.8,21.95,81.07,87,0,10.4,clear sky
235,Martapura,ID,-3.4167,114.85,75.29,100,75,1.14,broken clouds
236,Ahar,IR,38.4774,47.0699,59.76,79,94,6.93,overcast clouds
237,Paamiut,GL,61.994,-49.6678,44.29,78,100,5.73,overcast clouds
238,Solwezi,ZM,-12.1688,26.3894,64.06,32,0,3.02,clear sky
239,Port Macquarie,AU,-31.4333,152.9167,51.89,78,6,7.05,clear sky
240,Ouallam,NE,14.3188,2.0866,88.0,52,19,5.55,few clouds
241,Dingle,PH,10.9995,122.6711,74.35,89,91,4.09,overcast clouds
242,Tucurui,BR,-3.7661,-49.6725,96.55,27,60,4.27,broken clouds
243,Merauke,ID,-8.4667,140.3333,76.84,90,100,9.62,overcast clouds
244,Raudeberg,NO,61.9875,5.1352,56.07,77,0,8.28,clear sky
245,Alamogordo,US,32.8995,-105.9603,90.95,30,0,16.11,clear sky
246,Gawler,AU,-34.6,138.7333,49.15,92,17,2.1,few clouds
247,Coihaique,CL,-45.5752,-72.0662,57.15,51,40,9.22,scattered clouds
248,Harer,ET,9.3094,42.1258,61.75,78,99,2.06,light rain
249,Motygino,RU,58.1831,94.7592,39.24,93,80,1.45,broken clouds
250,Cap-Aux-Meules,CA,47.3821,-61.8597,68.05,68,20,17.27,few clouds
251,Srednekolymsk,RU,67.45,153.6833,42.35,94,100,4.16,light rain
252,Nome,US,64.5011,-165.4064,46.47,76,100,11.5,overcast clouds
253,Ende,ID,-8.8432,121.6623,74.14,84,16,0.51,few clouds
254,Tongliao,CN,43.6125,122.2653,65.17,69,100,9.4,overcast clouds
255,Linxia,CN,35.6003,103.2064,55.31,53,5,3.36,clear sky
256,Tautira,PF,-17.7333,-149.15,77.97,70,20,21.65,few clouds
257,Lucea,JM,18.451,-78.1736,87.66,72,10,11.27,clear sky
258,Isangel,VU,-19.55,169.2667,68.11,94,4,1.14,clear sky
259,Mercedes,AR,-34.6515,-59.4307,70.95,22,0,4.05,clear sky
260,Faya,SA,18.3851,42.4509,73.51,33,95,7.78,overcast clouds
261,Anadyr,RU,64.75,177.4833,45.1,81,40,8.95,scattered clouds
262,La Rioja,ES,42.25,-2.5,69.58,52,4,5.48,clear sky
263,Artyom,AZ,40.4723,50.333,71.74,49,97,10.63,overcast clouds
264,Binjai,ID,3.6001,98.4854,76.95,95,98,2.93,overcast clouds
265,Marzuq,YE,14.4,46.4667,79.86,54,100,4.81,overcast clouds
266,Kibakwe,TZ,-6.7167,36.3667,63.91,73,37,5.26,scattered clouds
267,Avanigadda,IN,16.0215,80.9181,76.41,93,100,5.46,moderate rain
268,Slave Lake,CA,55.2834,-114.769,64.38,55,0,11.5,clear sky
269,Mnogovershinnyy,RU,53.9353,139.9242,45.63,94,64,9.28,broken clouds
270,Talara,PE,-4.5772,-81.2719,72.36,68,0,17.27,clear sky
271,Belgrade,RS,44.804,20.4651,68.34,74,0,6.91,light rain
272,Hoquiam,US,46.9809,-123.8893,91.44,21,0,24.16,clear sky
273,Houston,US,29.7633,-95.3633,94.33,48,40,9.22,scattered clouds
274,Pitsunda,GE,43.1592,40.3378,64.58,52,83,4.32,broken clouds
275,Muskogee,US,35.5834,-95.3336,92.55,36,40,5.91,scattered clouds
276,Cockburn Town,TC,21.4612,-71.1419,87.76,66,40,12.66,scattered clouds
277,Padang,ID,-0.9492,100.3543,76.98,88,100,3.04,moderate rain
278,Baishishan,CN,43.5833,127.5667,61.7,93,100,2.13,overcast clouds
279,Skibbereen,IE,51.55,-9.2667,62.11,94,100,9.35,overcast clouds
280,Scarborough,GB,54.2797,-0.4044,61.79,89,12,1.01,few clouds
281,Armidale,AU,-30.5167,151.65,43.2,91,100,7.94,overcast clouds
282,Xingyi,CN,24.1877,102.817,59.67,99,100,2.8,overcast clouds
283,Porto Novo,BJ,6.4965,2.6036,76.86,81,91,8.3,overcast clouds
284,Vestmannaeyjar,IS,63.4427,-20.2734,53.53,91,100,6.04,light rain
285,Kangaatsiaq,GL,68.3065,-53.4641,43.5,91,100,9.17,light rain
286,Coruripe,BR,-10.1256,-36.1756,74.77,80,29,11.05,scattered clouds
287,Xacmaz,AZ,41.4635,48.806,66.11,77,99,0.96,overcast clouds
288,Leshan,CN,29.5623,103.7639,69.89,90,18,2.06,few clouds
289,Gao,ML,16.6362,1.637,92.37,38,41,7.67,scattered clouds
290,Bathsheba,BB,13.2167,-59.5167,88.41,66,40,11.5,scattered clouds
291,Dali,CN,25.7,100.1833,60.31,99,100,3.4,overcast clouds
292,Evensk,RU,61.95,159.2333,46.85,79,100,2.82,overcast clouds
293,Prince Rupert,CA,54.3161,-130.3201,57.29,84,0,11.5,clear sky
294,Hvide Sande,DK,56.0045,8.1294,56.08,78,86,9.82,overcast clouds
295,Karratha,AU,-20.7377,116.8463,70.5,41,0,7.16,clear sky
296,Berlevag,NO,70.8578,29.0864,46.4,87,100,12.66,overcast clouds
297,Fort Frances,CA,48.5999,-93.4003,66.16,56,40,8.05,scattered clouds
298,Airai,TL,-8.9266,125.4092,56.41,75,77,1.81,broken clouds
299,Lazaro Cardenas,MX,17.9583,-102.2,85.5,71,100,10.07,overcast clouds
300,Chkalovsk,RU,56.7647,43.2433,51.98,60,99,4.7,overcast clouds
301,Luorong,CN,24.4058,109.6086,78.57,83,100,0.89,overcast clouds
302,Beringovskiy,RU,63.05,179.3167,46.06,87,100,15.77,overcast clouds
303,Harlingen,US,26.1906,-97.6961,94.05,63,40,4.61,scattered clouds
304,Poum,NC,-20.2333,164.0167,75.4,82,0,7.14,clear sky
305,Los Llanos De Aridane,ES,28.6585,-17.9182,71.35,95,75,10.36,broken clouds
306,Kidal,ML,18.4411,1.4078,85.3,43,76,18.77,light rain
307,Fjerritslev,DK,57.0813,9.2664,58.89,86,35,10.49,scattered clouds
308,Banda Aceh,ID,5.5577,95.3222,79.16,80,100,8.99,overcast clouds
309,Ossora,RU,59.2353,163.0719,48.72,74,79,4.34,broken clouds
310,Vestmanna,FO,62.1564,-7.1664,49.12,93,75,13.8,broken clouds
311,Forssa,FI,60.8146,23.6215,43.99,70,21,3.36,few clouds
312,Mackenzie,CA,55.2999,-123.1698,64.62,45,0,13.8,clear sky
313,Bethel,US,41.3712,-73.414,87.03,42,0,0.0,clear sky
314,Prainha,BR,-1.8,-53.48,94.89,34,29,4.74,scattered clouds
315,Leh,IN,34.1667,77.5833,58.78,57,40,3.71,scattered clouds
316,Da Nang,VN,16.0678,108.2208,76.98,94,20,1.14,few clouds
317,Umtata,ZA,-31.5889,28.7844,57.15,96,29,3.83,scattered clouds
318,Afrikanda,RU,67.4429,32.7828,44.89,92,100,5.44,overcast clouds
319,Bambous Virieux,MU,-20.3428,57.7575,67.21,70,5,12.68,clear sky
320,Russell,US,32.3502,-85.1999,80.96,89,40,4.61,scattered clouds
321,Saldanha,ZA,-33.0117,17.9442,51.85,88,35,5.39,scattered clouds
322,Morristown,US,36.214,-83.2949,73.45,78,100,6.91,overcast clouds
323,Auki,SB,-8.7676,160.7034,77.02,85,14,3.18,few clouds
324,Maygatasan,PH,8.7094,125.7183,71.76,98,95,0.69,overcast clouds
325,Batticaloa,LK,7.7102,81.6924,80.19,74,100,4.65,overcast clouds
326,Itarema,BR,-2.9248,-39.9167,80.67,67,0,16.06,clear sky
327,Georgiyevka,KZ,43.0369,74.7114,68.04,49,40,2.24,scattered clouds
328,Port-Gentil,GA,-0.7193,8.7815,76.96,83,40,9.22,scattered clouds
329,Tatarsk,RU,55.219,75.9828,47.37,64,97,7.43,overcast clouds
330,Nieuwpoort,BE,51.1244,2.7735,66.2,80,75,11.5,broken clouds
331,Angren,UZ,41.0167,70.1436,68.02,39,5,2.35,clear sky
332,Sao Filipe,CV,14.8961,-24.4956,79.66,83,53,2.39,broken clouds
333,Clyde River,CA,70.4692,-68.5914,41.23,93,100,4.61,overcast clouds
334,Paredon,MX,16.0333,-93.8667,84.34,74,94,5.95,overcast clouds
335,Basco,PH,20.4487,121.9702,82.51,77,99,21.36,overcast clouds
336,Agaro,ET,7.85,36.65,61.95,98,100,0.78,moderate rain
337,Aswan,EG,24.0934,32.907,96.1,21,0,8.05,clear sky
338,Inhambane,MZ,-23.865,35.3833,68.99,86,0,10.69,clear sky
339,Norman Wells,CA,65.282,-126.8329,48.24,87,100,11.5,light rain
340,Broken Hill,AU,-31.95,141.4333,47.07,75,82,6.6,broken clouds
341,Belaya Gora,RU,68.5333,146.4167,42.57,88,100,3.47,overcast clouds
342,Kavieng,PG,-2.5744,150.7967,80.56,79,40,13.15,moderate rain
343,Letterkenny,IE,54.95,-7.7333,60.73,92,10,3.47,clear sky
344,Dicabisagan,PH,17.0818,122.4157,77.49,89,100,4.27,overcast clouds
345,Hambantota,LK,6.1241,81.1185,78.1,83,99,16.42,overcast clouds
346,Vostok,RU,46.4856,135.8833,49.87,86,0,3.58,clear sky
347,Washington,US,47.5001,-120.5015,79.34,24,0,6.11,clear sky
348,Naliya,IN,23.2667,68.8333,86.0,74,78,7.18,light rain
349,La Ciotat,FR,43.1748,5.6045,76.87,50,6,15.37,clear sky
350,Saurimo,AO,-9.6608,20.3916,73.36,23,2,4.36,clear sky
351,Puerto Colombia,CO,10.9878,-74.9547,91.49,71,70,9.17,broken clouds
352,Huarmey,PE,-10.0681,-78.1522,67.46,69,1,12.17,clear sky
353,Trelew,AR,-43.249,-65.3051,65.79,24,0,6.98,clear sky
354,Matagami,CA,49.7502,-77.6328,75.31,64,75,11.5,broken clouds
355,Chicama,PE,-7.8447,-79.1469,61.34,59,14,10.71,few clouds
356,Champerico,GT,14.3,-91.9167,88.34,75,89,11.65,overcast clouds
357,The Valley,AI,18.217,-63.0578,89.46,74,20,10.36,few clouds
358,Terre-De-Bas,GP,15.8501,-61.6442,87.31,74,93,12.46,overcast clouds
359,Nanortalik,GL,60.1432,-45.2371,45.73,73,3,9.48,clear sky
360,Hamilton,US,39.1834,-84.5333,82.99,67,0,6.91,clear sky
361,Port Lincoln,AU,-34.7333,135.8667,50.29,75,68,4.34,broken clouds
362,Kununurra,AU,-15.7667,128.7333,73.38,78,0,4.61,clear sky
363,Chabahar,IR,25.2919,60.643,82.76,75,35,5.19,scattered clouds
364,Gat,IL,31.61,34.7642,79.48,100,0,3.69,clear sky
365,Berezovyy,RU,51.6667,135.7,57.61,83,49,5.06,scattered clouds
366,Panguipulli,CL,-39.6333,-72.3333,55.54,69,16,3.27,few clouds
367,Areosa,PT,41.7178,-8.8571,65.98,87,0,1.16,clear sky
368,Mudgee,AU,-32.5943,149.5871,46.62,97,23,3.15,few clouds
369,Zile,TR,40.3031,35.8864,63.82,44,0,2.86,clear sky
370,Praia Da Vitoria,PT,38.7333,-27.0667,72.75,94,40,19.17,scattered clouds
371,Diamantina,BR,-18.2494,-43.6003,82.69,20,7,4.27,clear sky
372,Gravdal,NO,68.1214,13.5031,50.25,80,100,3.51,overcast clouds
373,Oktyabrskoye,RU,43.0645,44.7417,55.54,76,47,13.42,scattered clouds
374,Kaseda,JP,31.4167,130.3167,77.0,86,3,6.49,clear sky
375,Fort Nelson,CA,58.8053,-122.7002,67.59,28,40,9.22,scattered clouds
376,Hammerfest,NO,70.6634,23.6821,46.85,100,75,13.8,light intensity drizzle rain
377,Catamarca,AR,-28.4696,-65.7852,71.06,20,0,4.0,clear sky
378,Sechura,PE,-5.5569,-80.8222,75.69,55,56,16.84,broken clouds
379,Araouane,ML,18.9048,-3.5265,99.07,22,8,7.2,clear sky
380,Geraldton,AU,-28.7667,114.6,48.61,93,0,6.91,clear sky
381,Kavkazskiy,RU,44.2672,42.2347,55.2,48,10,18.61,clear sky
382,Krasnoselkup,RU,65.7,82.4667,41.0,51,100,4.74,overcast clouds
383,Samarai,PG,-10.6167,150.6667,79.75,83,13,9.95,few clouds
384,Port Blair,IN,11.6667,92.75,78.84,89,40,2.3,mist
385,Paciran,ID,-6.8767,112.3761,77.14,87,82,6.08,broken clouds
386,Alta Floresta,BR,-9.8756,-56.0861,96.62,28,7,4.61,smoke
387,Fenton,US,42.7978,-83.7049,84.67,63,100,5.01,overcast clouds
388,Atasu,KZ,48.6814,71.6433,60.57,51,100,3.6,overcast clouds
389,Juba,SS,4.8517,31.5825,71.22,92,63,3.11,broken clouds
390,Isabela,PH,6.7085,121.9711,76.68,84,72,3.02,broken clouds
391,Muros,ES,42.7762,-9.0603,68.68,90,15,3.8,few clouds
392,Luwuk,ID,-0.9516,122.7875,75.74,78,100,3.96,overcast clouds
393,Sabha,LY,27.0377,14.4283,82.81,18,0,8.12,clear sky
394,Bubaque,GW,11.2833,-15.8333,80.65,80,97,7.2,light rain
395,Kihei,US,20.785,-156.4656,85.96,70,20,13.8,few clouds
396,Sao Joao Da Barra,BR,-21.6403,-41.0511,82.49,72,5,23.78,clear sky
397,Xinqing,CN,48.2333,129.5,55.17,95,77,3.42,broken clouds
398,Mwene-Ditu,CD,-7.0,23.45,75.49,56,16,5.91,few clouds
399,Liberal,US,37.0431,-100.921,58.24,100,100,16.11,overcast clouds
400,Bukama,CD,-9.2,25.85,79.56,36,3,2.3,clear sky
401,La Serena,CL,-29.9078,-71.2542,56.71,71,100,8.05,overcast clouds
402,Kangaba,ML,11.9333,-8.4167,71.91,96,100,3.6,moderate rain
403,Luganville,VU,-15.5333,167.1667,78.84,76,29,7.34,scattered clouds
404,Namwala,ZM,-15.7504,26.4384,70.81,28,0,4.68,clear sky
405,Minden,DE,52.2833,8.9167,63.99,89,75,2.3,broken clouds
406,Fairbanks,US,64.8378,-147.7164,50.34,90,100,13.8,overcast clouds
407,Coxim,BR,-18.5067,-54.76,99.55,18,21,7.18,few clouds
408,Sadiqabad,PK,28.3062,70.1307,92.75,37,0,4.76,clear sky
409,Kalulushi,ZM,-12.8378,28.0919,65.91,31,1,3.13,clear sky
410,Asfi,MA,32.2994,-9.2372,72.7,84,27,14.45,scattered clouds
411,Muromtsevo,RU,56.3724,75.2418,42.58,87,39,3.09,scattered clouds
412,Kutum,SD,14.2,24.6667,81.05,33,29,7.02,scattered clouds
413,Parsabad,IR,39.6482,47.9174,70.54,60,88,9.26,overcast clouds
414,Sorland,NO,67.667,12.6934,48.06,83,100,6.8,overcast clouds
415,Darhan,MN,49.4867,105.9228,48.83,89,95,2.06,overcast clouds
416,Dunda,TZ,-8.1167,34.25,71.74,50,92,5.68,overcast clouds
417,Pangnirtung,CA,66.1451,-65.7125,51.8,87,75,2.3,broken clouds
418,Constantine,DZ,36.365,6.6147,78.21,47,20,9.22,few clouds
419,Chapais,CA,49.7834,-74.8492,78.58,32,1,10.6,clear sky
420,Saint-Joseph,RE,-21.3667,55.6167,64.78,74,50,8.99,scattered clouds
421,Celestun,MX,20.8667,-90.4,84.22,72,45,10.96,scattered clouds
422,Saint Anthony,US,45.0205,-93.218,74.34,50,19,3.0,few clouds
423,Thinadhoo,MV,0.5333,72.9333,81.61,73,95,13.2,overcast clouds
424,Waterloo,CA,43.4668,-80.5164,82.89,54,75,8.05,broken clouds
425,Wum,CM,6.3833,10.0667,64.26,96,100,1.52,light rain
426,Sao Felix Do Xingu,BR,-6.6447,-51.995,101.5,15,0,2.21,clear sky
427,Kiruna,SE,67.8557,20.2251,38.32,93,98,4.61,overcast clouds
428,Vytegra,RU,61.0064,36.4481,47.57,76,100,4.61,overcast clouds
429,Campeche,MX,19.0,-90.5,86.99,58,100,1.3,overcast clouds
430,Narsaq,GL,60.9167,-46.05,52.09,57,14,2.24,few clouds
431,Ust-Kuyga,RU,70.0167,135.6,38.3,88,98,4.18,overcast clouds
432,Abaza,RU,52.655,90.0928,43.39,83,16,3.2,few clouds
433,Pacific Grove,US,36.6177,-121.9166,72.41,82,40,8.05,haze
434,Wanning,CN,18.8003,110.3967,77.61,83,14,3.13,few clouds
435,Jackson,US,42.4165,-122.8345,99.37,10,0,2.48,clear sky
436,Richards Bay,ZA,-28.783,32.0377,66.83,89,0,0.47,clear sky
437,Qasigiannguit,GL,68.8193,-51.1922,45.41,71,100,5.5,overcast clouds
438,Sesheke,ZM,-17.4759,24.2968,69.12,19,0,5.53,clear sky
439,Glazov,RU,58.1394,52.6584,41.72,96,82,4.32,broken clouds
440,Biloela,AU,-24.4167,150.5,56.16,59,99,5.01,overcast clouds
441,Iqaluit,CA,63.7506,-68.5145,47.93,81,75,11.5,broken clouds
442,Lata,PT,40.1629,-8.3327,70.81,75,0,2.33,clear sky
443,Vaitape,PF,-16.5167,-151.75,79.12,72,5,19.42,clear sky
444,Flin Flon,CA,54.7682,-101.865,62.44,45,20,11.5,few clouds
445,Savannah Bight,HN,16.45,-85.85,84.4,81,91,21.92,overcast clouds
446,Ushtobe,KZ,45.2514,77.9838,69.28,43,100,2.73,overcast clouds
447,Shurugwi,ZW,-19.6702,30.0059,60.28,20,0,2.98,clear sky
448,Mangai,CD,-4.05,19.5333,74.98,81,84,1.48,broken clouds
449,Khani,GE,41.9563,42.9566,54.97,72,66,5.28,broken clouds
450,Zhangjiakou,CN,40.81,114.8794,61.59,70,21,2.59,few clouds
451,San Andres,CO,12.5847,-81.7006,89.62,70,75,6.91,broken clouds
452,Loudeac,FR,48.1783,-2.7543,61.72,91,99,3.22,overcast clouds
453,Zanjan,IR,36.6736,48.4787,58.17,80,61,9.19,broken clouds
454,Tazovskiy,RU,67.4667,78.7,38.43,89,99,6.58,overcast clouds
455,Novoseleznevo,RU,55.6821,69.2056,43.47,81,96,7.76,overcast clouds
456,Westport,US,41.1415,-73.3579,88.45,44,0,9.22,clear sky
457,Eenhana,NA,-17.4667,16.3333,71.58,15,0,7.54,clear sky
458,Nabire,ID,-3.3667,135.4833,75.7,90,100,2.77,overcast clouds
459,Puerto Carreno,CO,6.189,-67.4859,89.58,62,40,4.61,scattered clouds
460,Hato Mayor,DO,18.7629,-69.256,84.58,75,100,7.14,overcast clouds
461,Beitbridge,ZW,-22.2167,30.0,76.66,20,0,8.3,clear sky
462,Felipe Carrillo Puerto,MX,19.5833,-88.05,83.5,82,94,6.11,overcast clouds
463,Spring Hill,US,28.4769,-82.5255,78.24,95,100,12.35,light rain
464,Lasa,IT,46.6166,10.7002,54.36,90,60,4.45,broken clouds
465,Kumluca,TR,36.3703,30.2869,82.26,44,0,2.95,clear sky
466,Asau,RO,46.4333,26.4,61.72,89,100,5.19,overcast clouds
467,Constitucion,CL,-35.3333,-72.4167,56.19,59,0,3.47,clear sky
468,Alihe,CN,50.5667,123.7167,55.33,93,90,2.62,overcast clouds
469,Nhulunbuy,AU,-12.2333,136.7667,70.41,94,75,0.0,broken clouds
470,Tagudin,PH,16.9355,120.4442,77.09,84,100,6.06,overcast clouds
471,Taltal,CL,-25.4,-70.4833,58.32,70,74,8.01,broken clouds
472,Kavaratti,IN,10.5669,72.642,79.88,83,100,22.12,overcast clouds
473,Quito,EC,-0.2299,-78.5249,70.75,57,99,6.51,light rain
474,Awbari,LY,26.5921,12.7805,81.86,17,0,8.55,clear sky
475,Launceston,AU,-41.45,147.1667,46.8,87,40,9.22,scattered clouds
476,Trinidad,BO,-14.8333,-64.9,76.98,41,75,5.75,broken clouds
477,Gediz,TR,39.0417,29.41,71.24,40,0,2.39,clear sky
478,Svetlogorsk,BY,52.6333,29.7333,47.66,96,100,17.92,overcast clouds
479,Lengshuijiang,CN,27.6881,111.4294,77.0,55,99,1.7,overcast clouds
480,Tenenkou,ML,14.4572,-4.9169,84.51,59,100,4.63,overcast clouds
481,Uvarovo,RU,51.9849,42.2615,44.08,65,8,3.27,clear sky
482,Comodoro Rivadavia,AR,-45.8667,-67.5,62.46,42,0,8.05,clear sky
483,Mackay,AU,-21.15,149.2,64.26,49,0,4.18,clear sky
484,Dhidhdhoo,MV,6.8833,73.1,80.35,83,100,16.93,overcast clouds
485,Zyryanka,RU,65.75,150.85,42.37,92,100,2.93,overcast clouds
486,Aksha,RU,50.2814,113.2867,50.04,92,100,5.01,overcast clouds
487,Kuytun,RU,54.3419,101.5036,41.88,90,100,4.83,overcast clouds
488,Teguise,ES,29.0605,-13.564,71.82,73,20,10.36,few clouds
489,Gandajika,CD,-6.75,23.95,76.59,60,22,3.94,few clouds
490,Paka,MY,4.6374,103.4368,76.98,94,96,0.0,overcast clouds
491,Arman,RU,59.7,150.1667,44.02,78,0,6.02,clear sky
492,Quatre Cocos,MU,-20.2078,57.7625,68.09,69,7,11.9,clear sky
493,Puerto Varas,CL,-41.3195,-72.9854,55.62,71,40,9.22,scattered clouds
494,Ouango,CF,4.3133,22.5552,71.6,97,100,0.67,overcast clouds
495,Mount Isa,AU,-20.7333,139.5,65.97,26,0,5.75,clear sky
496,Rio Gallegos,AR,-51.6226,-69.2181,60.85,31,40,24.16,scattered clouds
497,Brookings,US,44.3114,-96.7984,72.05,39,27,9.13,scattered clouds
498,Kirakira,SB,-10.4544,161.9205,78.49,85,7,6.98,clear sky
499,Wilmington,US,34.2257,-77.9447,87.71,77,100,4.0,light rain
500,Siguiri,GN,11.6667,-9.5,72.81,95,100,2.28,light rain
501,Turbat,PK,26.0023,63.044,87.98,47,0,6.46,clear sky
502,Egvekinot,RU,66.3167,-179.1667,37.9,74,13,2.89,few clouds
503,Mokolo,CM,10.7398,13.8019,69.42,89,100,1.43,overcast clouds
504,Tashtagol,RU,52.7657,87.8894,42.55,74,52,2.01,broken clouds
505,Vila Franca Do Campo,PT,37.7167,-25.4333,73.2,87,100,15.35,overcast clouds
506,Pandharpur,IN,17.6667,75.3333,75.33,86,100,10.89,overcast clouds
507,Matara,LK,5.9485,80.5353,76.87,89,84,10.49,broken clouds
508,Hirtshals,DK,57.5881,9.9592,59.29,80,100,10.78,overcast clouds
509,Malakal,SS,9.5334,31.6605,70.88,98,73,4.56,light rain
510,Isla Mujeres,MX,21.2311,-86.731,75.16,90,100,7.7,overcast clouds
511,Batagay-Alyta,RU,67.8006,130.4114,34.68,59,77,6.38,broken clouds
512,Yicheng,CN,31.3705,119.8703,70.95,88,67,3.47,broken clouds
513,Korla,CN,41.7597,86.1469,78.58,20,0,8.21,clear sky
514,Riberalta,BO,-10.9833,-66.1,97.0,46,75,11.5,smoke
515,Khorixas,NA,-20.3667,14.9667,67.21,44,0,3.44,clear sky
516,Saint-Georges,GD,12.0564,-61.7485,87.48,70,20,17.27,few clouds
517,Takoradi,GH,4.8845,-1.7554,74.75,87,66,8.77,broken clouds
518,Axim,GH,4.8699,-2.2405,74.25,89,60,7.14,broken clouds
519,Smirnykh,RU,49.75,142.8333,52.32,63,0,3.27,clear sky
520,Plastun,RU,44.7561,136.2939,54.19,85,6,3.94,clear sky
521,Aykhal,RU,66.0,111.5,30.38,93,100,7.11,overcast clouds
522,Minab,IR,27.1467,57.0801,86.32,58,4,0.0,clear sky
523,Vao,NC,-22.6667,167.4833,72.97,88,4,9.22,clear sky
524,Kawalu,ID,-7.3817,108.2082,72.07,97,100,0.78,overcast clouds
525,Belyy Yar,RU,53.6039,91.3903,44.85,67,0,4.47,clear sky
526,Dongsheng,CN,39.8161,109.9776,58.37,59,0,8.5,clear sky
527,Glendive,US,47.1053,-104.7125,70.75,29,0,11.5,clear sky
528,Crib Point,AU,-38.35,145.2,51.89,86,100,15.59,overcast clouds
529,Suez,EG,29.9737,32.5263,75.54,72,0,10.18,clear sky
530,Iglas,IN,27.7167,77.9333,86.88,55,78,4.81,broken clouds
531,Sinnamary,GF,5.3833,-52.95,83.14,69,100,9.66,overcast clouds
532,Mlonggo,ID,-6.5333,110.7,77.32,82,98,4.38,overcast clouds
533,Adrar,MR,20.5022,-10.0711,102.33,13,63,8.95,broken clouds
534,Elko,US,41.0002,-115.5012,79.74,10,0,4.0,clear sky
535,Ketchikan,US,55.3422,-131.6461,57.18,64,12,6.91,few clouds
536,Cartagena Del Chaira,CO,1.3349,-74.8429,71.58,97,99,3.02,overcast clouds
537,Antalaha,MG,-14.9003,50.2788,66.47,86,9,6.71,clear sky
538,Puerto Ayacucho,VE,5.6639,-67.6236,84.49,74,97,5.66,overcast clouds
539,San Quintin,MX,30.4833,-115.95,79.3,69,84,16.42,broken clouds
540,La Ronge,CA,55.1001,-105.2842,66.45,30,75,13.8,broken clouds
541,Ordzhonikidze,KZ,52.4411,61.7408,46.9,87,100,17.4,light rain
542,Talcahuano,CL,-36.7167,-73.1167,58.68,55,0,9.22,clear sky
543,Hobyo,SO,5.3505,48.5268,76.73,88,48,25.26,scattered clouds
544,Anuradhapura,LK,8.3565,80.4173,76.78,83,100,13.2,overcast clouds
545,Westerville,US,40.1262,-82.9291,79.79,66,100,5.01,overcast clouds
546,Sembakung,ID,3.8167,117.25,72.75,99,100,2.06,overcast clouds
547,Cervo,ES,43.6702,-7.4101,66.96,83,0,5.3,clear sky
548,Loding,NO,67.3,14.75,50.85,86,75,0.0,broken clouds
549,Kondinskoye,RU,59.6481,67.41,43.3,89,99,3.91,overcast clouds
550,Lagos,NG,6.5833,3.75,75.56,87,100,4.83,overcast clouds
551,Januaria,BR,-15.4833,-44.3667,92.26,11,5,4.94,clear sky
552,Lagoa,PT,39.05,-27.9833,71.82,72,100,28.61,overcast clouds
553,Sistranda,NO,63.7256,8.834,51.76,79,8,9.46,clear sky
554,Saint-Paul,RE,-21.0096,55.2707,69.89,72,52,1.7,broken clouds
555,Fomboni,KM,-12.28,43.7425,75.69,71,6,2.37,clear sky
556,Pokhara,NP,28.2333,83.9833,72.73,75,95,3.49,overcast clouds
557,West Wendover,US,40.7391,-114.0733,75.9,9,0,5.64,clear sky
558,Yeppoon,AU,-23.1333,150.7333,56.98,59,83,5.61,broken clouds
559,Ormara,PK,25.2088,64.6357,82.44,78,43,13.35,scattered clouds
560,Natchez,US,31.5604,-91.4032,80.82,69,40,5.75,scattered clouds
561,Cochabamba,BO,-17.3895,-66.1568,76.75,29,20,9.22,few clouds
562,Mumford,GH,5.2618,-0.759,75.11,89,13,11.88,few clouds
563,Mandalgovi,MN,45.7625,106.2708,52.34,69,83,18.95,broken clouds
564,Wenling,CN,28.3669,121.36,70.21,88,63,6.87,broken clouds
565,Longyearbyen,SJ,78.2186,15.6401,33.64,69,75,11.5,broken clouds
566,Mujiayingzi,CN,42.1167,118.7833,60.31,65,17,5.03,few clouds
567,Iwanai,JP,42.9744,140.5089,55.96,96,13,6.96,few clouds
568,Darnah,LY,32.767,22.6367,78.06,73,0,15.12,clear sky
569,Caceres,ES,39.522,-6.3748,81.97,31,1,4.7,clear sky
570,Jacareacanga,BR,-6.2222,-57.7528,102.92,18,4,4.18,clear sky
571,Sortavala,RU,61.7053,30.6918,48.13,85,52,4.97,broken clouds
572,Taguatinga,BR,-12.3857,-46.5711,95.97,15,1,5.08,clear sky
573,Sparbu,NO,63.9194,11.4366,47.86,78,4,0.89,clear sky
574,Umm Lajj,SA,25.0213,37.2685,87.76,58,10,7.18,clear sky
575,Sukhumi,GE,43.0033,41.0153,66.06,55,94,5.93,overcast clouds
576,Deputatskiy,RU,69.3,139.9,35.98,92,97,4.43,overcast clouds
577,Cabedelo,BR,-6.9811,-34.8339,79.47,74,43,11.39,scattered clouds
578,Estelle,US,29.8458,-90.1067,88.0,65,75,5.99,broken clouds
579,Tsiroanomandidy,MG,-18.7667,46.0333,65.28,54,0,4.76,clear sky
580,Aklavik,CA,68.2191,-135.0107,44.76,95,100,5.44,light rain
581,Mananjary,MG,-21.2167,48.3333,65.95,90,2,4.61,clear sky
582,Mirabad,AF,30.4362,61.8383,84.94,22,0,23.55,clear sky
583,Puerto Leguizamo,CO,-0.1934,-74.7819,73.36,95,100,2.13,overcast clouds
584,Solnechnyy,RU,50.7214,136.6319,56.95,84,10,5.08,clear sky
585,Cabrero,CL,-37.0333,-72.4,60.75,37,0,0.6,clear sky
586,Tarragona,ES,41.129,1.249,80.38,73,40,3.0,scattered clouds
587,Tombouctou,ML,20.0,-3.0,99.95,20,19,3.98,few clouds
588,Vangaindrano,MG,-23.35,47.6,64.94,90,0,4.29,clear sky
589,Baghdad,IQ,33.3406,44.4009,94.91,21,0,9.22,clear sky
590,Chengzihe,CN,45.3333,131.0667,55.47,89,100,1.57,overcast clouds
591,Kissidougou,GN,9.1848,-10.0999,68.11,97,98,1.57,overcast clouds
592,Luau,AO,-10.7073,22.2247,73.51,26,5,1.9,clear sky
593,Nivala,FI,63.9167,24.9667,44.69,71,98,3.62,overcast clouds
594,College,US,64.8569,-147.8028,50.32,90,75,11.5,broken clouds
595,Tambacounda,SN,13.7539,-13.7586,76.1,91,93,4.07,light rain
596,Kizukuri,JP,40.8061,140.3861,66.11,83,79,6.29,broken clouds
597,Lunenburg,CA,44.3835,-64.3155,78.06,54,0,10.36,clear sky
598,Cedar Lake,US,41.3648,-87.4411,87.98,52,67,11.77,broken clouds
599,Kholodnyy,RU,62.7167,147.95,36.59,79,12,3.56,few clouds
600,Mayumba,GA,-3.432,10.6554,74.28,88,100,8.25,overcast clouds
601,Guiratinga,BR,-16.3494,-53.7583,99.45,12,6,2.44,clear sky
602,Yarim,YE,14.298,44.3779,61.97,45,90,5.06,overcast clouds
603,Shiyan,CN,32.6475,110.7781,64.24,89,0,1.16,clear sky
604,Tabas,IR,33.5959,56.9244,89.82,12,0,4.61,clear sky
605,Valparaiso,CL,-33.0393,-71.6273,61.0,89,100,12.66,overcast clouds
606,Sao Jose Da Coroa Grande,BR,-8.8978,-35.1478,74.79,83,29,11.43,scattered clouds
607,Torbay,CA,47.6666,-52.7314,57.58,95,100,28.01,moderate rain
608,Emerald,AU,-23.5333,148.1667,55.35,74,11,8.63,few clouds
609,High Level,CA,58.5169,-117.136,68.11,28,40,8.05,scattered clouds
610,Holme,DK,56.1138,10.1725,57.18,88,2,7.52,clear sky
611,Jurm,AF,36.8648,70.8342,65.55,31,0,2.15,clear sky
612,Ombessa,CM,4.603,11.2565,69.19,98,100,3.69,light rain
613,Abadan,IR,30.3392,48.3043,94.95,28,0,6.91,clear sky
614,Dubrovka,RU,53.6907,33.5071,47.26,52,76,10.45,broken clouds
615,Hovin,NO,63.1055,10.225,47.25,81,36,1.28,scattered clouds
616,Parana,AR,-31.732,-60.5238,69.57,22,0,4.54,clear sky
617,Misratah,LY,32.3754,15.0925,82.87,53,3,12.12,clear sky
618,Makhinjauri,GE,41.6739,41.694,64.26,82,0,12.66,light rain
619,Olafsvik,IS,64.8945,-23.7142,52.2,82,100,15.23,overcast clouds
620,Lingao,CN,19.9103,109.6859,77.4,80,100,5.99,overcast clouds
621,Orumiyeh,IR,37.5527,45.0761,60.35,55,0,6.91,clear sky
622,Cullen,GB,57.6904,-2.8182,55.89,86,77,11.01,broken clouds
623,Kruisfontein,ZA,-34.0033,24.7314,55.9,82,100,6.35,overcast clouds
624,Khorol,UA,49.7837,33.2783,58.39,44,100,14.56,overcast clouds
625,Manzhouli,CN,49.6,117.4333,58.8,78,100,7.25,overcast clouds
626,Khash,IR,28.2211,61.2158,77.54,16,0,7.45,clear sky
627,Sorong,ID,-0.8833,131.25,76.68,87,100,4.76,overcast clouds
628,Bandar,ID,2.05,99.75,71.13,92,100,3.18,overcast clouds
629,Litovko,RU,49.2361,135.1742,53.53,90,12,4.76,few clouds
630,Liberia,LR,6.5,-9.5,71.91,99,100,3.96,light rain
631,Harper,LR,4.375,-7.7169,75.76,85,25,9.24,scattered clouds
632,Dubuque,US,42.4833,-90.8668,71.67,73,100,12.66,overcast clouds
633,Nago,JP,26.5881,127.9761,80.46,84,100,11.34,overcast clouds
634,Yablonovo,RU,50.8523,37.3574,46.04,46,93,8.84,overcast clouds
635,Portland,US,45.5234,-122.6762,91.36,19,0,10.65,clear sky
636,Revda,RU,56.801,59.9303,41.11,83,100,4.12,overcast clouds
637,Houma,US,29.5958,-90.7195,90.0,65,59,2.59,broken clouds
638,Athmallik,IN,20.7219,84.5348,76.75,97,100,4.32,overcast clouds
639,Joaquim Gomes,BR,-9.1373,-35.7519,71.85,91,34,5.79,scattered clouds
640,Jiangyou,CN,31.7667,104.7167,66.61,89,14,3.58,few clouds
641,Parrita,CR,9.5201,-84.3225,82.24,74,100,4.59,overcast clouds
642,Ust-Maya,RU,60.4167,134.5333,33.06,88,51,3.74,broken clouds
643,Bonavista,CA,48.6499,-53.1147,57.16,87,100,29.64,overcast clouds
644,Brae,GB,60.3964,-1.353,50.94,83,89,1.5,overcast clouds
645,Goma,CD,-1.6792,29.2228,65.59,82,85,2.19,light rain
646,Nieves,PH,15.3274,120.9485,74.84,95,81,0.83,broken clouds
647,Karasjok,NO,69.4719,25.5112,44.37,85,98,7.76,overcast clouds
648,Goba,ET,7.0167,39.9833,52.57,89,97,4.56,overcast clouds
649,Calama,CL,-22.4667,-68.9333,70.9,11,1,22.66,clear sky
650,Ouesso,CG,1.6136,16.0517,71.1,96,20,2.3,few clouds
651,Cortes,ES,41.9395,-1.4396,82.45,36,33,5.99,scattered clouds
652,Alyangula,AU,-13.8483,136.4192,74.46,79,91,1.68,overcast clouds
653,Sergeyevka,KZ,53.88,67.4158,49.19,72,100,12.19,light rain
654,Vila Velha,BR,-20.3297,-40.2925,76.57,64,34,22.12,scattered clouds
655,Changping,CN,40.2186,116.2197,65.84,81,6,1.12,clear sky
656,Tanout,NE,14.9709,8.8879,85.59,51,83,10.98,broken clouds
657,Aksarka,RU,66.5606,67.7975,40.44,85,100,2.19,overcast clouds
658,Gazli,UZ,40.1333,63.45,67.05,31,23,17.25,few clouds
659,Acarau,BR,-2.8856,-40.12,81.21,66,0,17.09,clear sky
660,Shimoda,JP,34.6667,138.95,70.11,74,6,16.22,clear sky
661,Mporokoso,ZM,-9.3727,30.125,71.37,41,79,3.27,broken clouds
662,Bloomington,US,44.8408,-93.2983,74.71,52,39,4.0,scattered clouds
663,Gorele,TR,41.0308,39.0031,66.85,69,0,5.41,clear sky
664,Peterhead,GB,57.5058,-1.7981,54.5,85,66,7.23,broken clouds
665,Hellvik,NO,59.9156,5.781,59.77,72,3,3.0,clear sky
666,Slonim,BY,53.0867,25.3219,47.05,96,100,11.3,overcast clouds
667,Aktash,RU,50.3,87.7333,37.15,59,68,3.2,broken clouds
668,Agirish,RU,61.9247,63.0231,41.81,90,93,2.91,overcast clouds
669,Gazanjyk,TM,39.2446,55.5154,69.1,24,0,8.93,clear sky
670,Wonthaggi,AU,-38.6044,145.5913,48.81,75,100,16.26,overcast clouds
671,Tomball,US,30.0972,-95.6161,93.94,48,10,1.99,clear sky
672,Quelimane,MZ,-17.8786,36.8883,72.73,79,0,6.93,clear sky
673,Ous,RU,60.9058,61.5186,42.24,94,100,4.23,overcast clouds
674,Bazarnyye Mataki,RU,54.8833,49.9333,47.01,85,97,5.44,overcast clouds
675,Newport,GB,51.5877,-2.9984,64.69,83,100,2.46,overcast clouds
676,Linhai,CN,28.85,121.1167,66.72,95,17,2.75,few clouds
